[{"NAME":"CENTRAL VALLEY GENERAL HOSPITAL","ADDRESS":"1025 NORTH DOUTY STREET","CITY":"HANFORD","STATE":"CA","ZIP":93230,"ZIP4":"NOT AVAILABLE","TELEPHONE":"NOT AVAILABLE","TYPE":"GENERAL ACUTE CARE","STATUS":"CLOSED","POPULATION":49,"COUNTY":"KINGS","COUNTYFIPS":"06031","COUNTRY":"USA","LATITUDE":36.33615885,"LONGITUDE":-119.645667298},
{"NAME":"LOS ROBLES HOSPITAL & MEDICAL CENTER - EAST CAMPUS","ADDRESS":"150 VIA MERIDA","CITY":"WESTLAKE VILAGE","STATE":"CA","ZIP":91362,"ZIP4":"NOT AVAILABLE","TELEPHONE":"NOT AVAILABLE","TYPE":"GENERAL ACUTE CARE","STATUS":"OPEN","POPULATION":62,"COUNTY":"VENTURA","COUNTYFIPS":"06111","COUNTRY":"USA","LATITUDE":34.154938872,"LONGITUDE":-118.815736391},
{"NAME":"EAST LOS ANGELES DOCTORS HOSPITAL","ADDRESS":"4060 WHITTIER BOULEVARD","CITY":"LOS ANGELES","STATE":"CA","ZIP":90023,"ZIP4":"NOT AVAILABLE","TELEPHONE":"NOT AVAILABLE","TYPE":"GENERAL ACUTE CARE","STATUS":"OPEN","POPULATION":127,"COUNTY":"LOS ANGELES","COUNTYFIPS":"06037","COUNTRY":"USA","LATITUDE":34.023647302,"LONGITUDE":-118.184164805},
{"NAME":"SOUTHERN CALIFORNIA HOSPITAL AT HOLLYWOOD","ADDRESS":"6245 DE LONGPRE AVENUE","CITY":"HOLLYWOOD","STATE":"CA","ZIP":90028,"ZIP4":"NOT AVAILABLE","TELEPHONE":"(323) 462-2271","TYPE":"GENERAL ACUTE CARE","STATUS":"OPEN","POPULATION":100,"COUNTY":"LOS ANGELES","COUNTYFIPS":"06037","COUNTRY":"USA","LATITUDE":34.096391357,"LONGITUDE":-118.325234871},
{"NAME":"KINDRED HOSPITAL BALDWIN PARK","ADDRESS":"14148 FRANCISQUITO AVENUE","CITY":"BALDWIN PARK","STATE":"CA","ZIP":91706,"ZIP4":"NOT AVAILABLE","TELEPHONE":"NOT AVAILABLE","TYPE":"GENERAL ACUTE CARE","STATUS":"OPEN","POPULATION":95,"COUNTY":"LOS ANGELES","COUNTYFIPS":"06037","COUNTRY":"USA","LATITUDE":34.063038932,"LONGITUDE":-117.967437788},
{"NAME":"LAKEWOOD REGIONAL MEDICAL CENTER","ADDRESS":"3700 EAST SOUTH STREET","CITY":"LAKEWOOD","STATE":"CA","ZIP":90712,"ZIP4":"NOT AVAILABLE","TELEPHONE":"NOT AVAILABLE","TYPE":"GENERAL ACUTE CARE","STATUS":"OPEN","POPULATION":172,"COUNTY":"LOS ANGELES","COUNTYFIPS":"06037","COUNTRY":"USA","LATITUDE":33.85970662,"LONGITUDE":-118.148402965},
{"NAME":"MONROVIA MEMORIAL HOSPITAL","ADDRESS":"323 SOUTH HELIOTROPE AVENUE","CITY":"MONROVIA","STATE":"CA","ZIP":91016,"ZIP4":"NOT AVAILABLE","TELEPHONE":"NOT AVAILABLE","TYPE":"GENERAL ACUTE CARE","STATUS":"OPEN","POPULATION":49,"COUNTY":"LOS ANGELES","COUNTYFIPS":"06037","COUNTRY":"USA","LATITUDE":34.148758659,"LONGITUDE":-117.992667657},
{"NAME":"MONTEREY PARK HOSPITAL","ADDRESS":"900 SOUTH ATLANTIC BOULEVARD","CITY":"MONTEREY PARK","STATE":"CA","ZIP":91754,"ZIP4":"NOT AVAILABLE","TELEPHONE":"NOT AVAILABLE","TYPE":"GENERAL ACUTE CARE","STATUS":"OPEN","POPULATION":101,"COUNTY":"LOS ANGELES","COUNTYFIPS":"06037","COUNTRY":"USA","LATITUDE":34.049466059,"LONGITUDE":-118.138262231},
{"NAME":"STAR VIEW ADOLESCENT - P H F","ADDRESS":"4025 WEST 226 STREET","CITY":"TORRANCE","STATE":"CA","ZIP":90505,"ZIP4":"NOT AVAILABLE","TELEPHONE":"NOT AVAILABLE","TYPE":"PSYCHIATRIC","STATUS":"OPEN","POPULATION":16,"COUNTY":"LOS ANGELES","COUNTYFIPS":"06037","COUNTRY":"USA","LATITUDE":33.823914464,"LONGITUDE":-118.356096947},
{"NAME":"CORONA REGIONAL MEDICAL CENTER-MAGNOLIA","ADDRESS":"730 MAGNOLIA AVENUE","CITY":"CORONA","STATE":"CA","ZIP":92879,"ZIP4":"NOT AVAILABLE","TELEPHONE":"NOT AVAILABLE","TYPE":"GENERAL ACUTE CARE","STATUS":"OPEN","POPULATION":78,"COUNTY":"RIVERSIDE","COUNTYFIPS":"06065","COUNTRY":"USA","LATITUDE":33.858083307,"LONGITUDE":-117.553858035},
{"NAME":"MODOC MEDICAL CENTER","ADDRESS":"228 MC DOWELL STREET","CITY":"ALTURAS","STATE":"CA","ZIP":96101,"ZIP4":"NOT AVAILABLE","TELEPHONE":"NOT AVAILABLE","TYPE":"GENERAL ACUTE CARE","STATUS":"OPEN","POPULATION":87,"COUNTY":"MODOC","COUNTYFIPS":"06049","COUNTRY":"USA","LATITUDE":41.480056255,"LONGITUDE":-120.545743987},
{"NAME":"SALINAS VALLEY MEMORIAL HOSPITAL","ADDRESS":"450 EAST ROMIE LANE","CITY":"SALINAS","STATE":"CA","ZIP":93901,"ZIP4":"NOT AVAILABLE","TELEPHONE":"NOT AVAILABLE","TYPE":"GENERAL ACUTE CARE","STATUS":"OPEN","POPULATION":269,"COUNTY":"MONTEREY","COUNTYFIPS":"06053","COUNTRY":"USA","LATITUDE":36.659030456,"LONGITUDE":-121.645983804},
{"NAME":"CORPUS CHRISTI SPECIALTY HOSPITAL","ADDRESS":"1310 THIRD STREET","CITY":"CORPUS CHRISTI","STATE":"TX","ZIP":78414,"ZIP4":"NOT AVAILABLE","TELEPHONE":"(361) 888-4323","TYPE":"GENERAL ACUTE CARE","STATUS":"CLOSED","POPULATION":189,"COUNTY":"NUECES","COUNTYFIPS":"48355","COUNTRY":"USA","LATITUDE":27.778510168,"LONGITUDE":-97.396208313},
{"NAME":"HEALTHBRIDGE CHILDREN'S HOSPITAL-ORANGE","ADDRESS":"393 S. TUSTIN STREET","CITY":"ORANGE","STATE":"CA","ZIP":92866,"ZIP4":"NOT AVAILABLE","TELEPHONE":"NOT AVAILABLE","TYPE":"CHILDREN","STATUS":"OPEN","POPULATION":27,"COUNTY":"ORANGE","COUNTYFIPS":"06059","COUNTRY":"USA","LATITUDE":33.782727173,"LONGITUDE":-117.833891865},
{"NAME":"HEALTHSOUTH TUSTIN REHABILITATION HOSPITAL","ADDRESS":"14851 YORBA STREET","CITY":"TUSTIN","STATE":"CA","ZIP":92680,"ZIP4":"NOT AVAILABLE","TELEPHONE":"NOT AVAILABLE","TYPE":"GENERAL ACUTE CARE","STATUS":"OPEN","POPULATION":48,"COUNTY":"ORANGE","COUNTYFIPS":"06059","COUNTRY":"USA","LATITUDE":33.74746074,"LONGITUDE":-117.831055631}]